     2.11           OBSERVATION DATA    G (GPS)             RINEX VERSION / TYPE
teqc  2010Oct21                         20110101 01:04:05UTCPGM / RUN BY / DATE
Linux 2.4.20-8|Pentium IV|gcc -static|Linux|486/DX+         COMMENT
ALGO CACS-GSD 883160 ALGONQUIN PARK ON CANADA               MARKER NAME
40104M002                                                   MARKER NUMBER
OPERATOR            NRCan/GEODETIC SURVEY OF CANADA         OBSERVER / AGENCY
124-U               AOA BENCHMARK ACT   3.3.32.2N           REC # / TYPE / VERS
386                 AOAD/M_T        NONE                    ANT # / TYPE
   918129.4000 -4346071.2000  4561977.8000                  APPROX POSITION XYZ
        0.1000        0.0000        0.0000                  ANTENNA: DELTA H/E/N
     1     1                                                WAVELENGTH FACT L1/2
     7    L1    L2    C1    P2    P1    S1    S2            # / TYPES OF OBSERV
    30.0000                                                 INTERVAL
    P1 =    P1  TurboRogue; =    Y1  Benchmark              COMMENT
    L1 = L1(CA)                                             COMMENT
    P2 =    P2  TurboRogue; =    Y2  Benchmark              COMMENT
    L2 = L2(P2) TurboRogue; = L2(Y2) Benchmark              COMMENT
 SNR is mapped to RINEX snr flag value [0-9]                COMMENT
  L1 & L2: min(max(int(snr_dBHz/6), 0), 9)                  COMMENT
  2011     1     1     0     0    0.0000000     GPS         TIME OF FIRST OBS
                                                            END OF HEADER
 11  1  1  0  0  0.0000000  0  9G18G21G14G19G12G27G09G15G22
 107148782.478 7  83492564.916 8  20389724.864    20389723.064    20389724.297
        44.000          48.000
 120481779.755 4  93881899.458 4  22926926.697    22926925.697    22926926.220
        28.100          24.900
 115911468.762 6  90320639.342 5  22057203.335    22057201.875    22057202.837
        39.000          33.000
 130904672.763 2 102003653.768 2  24910323.000    24910319.787    24910320.526
        17.000          15.100
 129020017.902 3 100535078.494 3  24551693.391    24551694.094    24551693.610
        23.000          22.100
 118380573.626 6  92244605.749 5  22527075.104    22527074.775    22527074.619
        37.000          35.100
 108271982.837 8  84367769.593 7  20603477.188    20603476.563    20603476.808
        48.000          43.000
 122043546.824 5  95098865.858 5  23224116.482    23224116.027    23224116.506
        32.000          32.000
 108665703.376 8  84674595.148 7  20678378.940    20678375.378    20678377.834
        48.000          47.000
 11  1  1  0  0 30.0000000  0  9G18G21G14G19G12G27G09G15G22
 107165881.840 7  83505889.095 8  20392978.688    20392976.905    20392978.144
        44.000          48.000
 120585875.134 5  93963012.665 4  22946736.285    22946734.328    22946735.318
        30.100          24.900
 115843358.016 6  90267566.046 5  22044242.096    22044241.208    22044241.554
        38.000          34.000
 130941588.556 2 102032419.321 2  24917347.466    24917344.247    24917346.185
        17.000          17.000
 128932871.779 3 100467172.454 3  24535109.100    24535109.983    24535109.258
        22.100          22.100
 118450474.653 6  92299074.077 5  22540376.814    22540376.454    22540376.375
        37.000          35.100
 108298417.297 7  84388367.881 7  20608507.309    20608506.843    20608506.983
        47.000          43.000
 122132157.095 5  95167912.799 5  23240978.216    23240978.335    23240978.396
        32.000          33.000
 108624064.876 8  84642149.565 7  20670455.223    20670451.802    20670454.263
        48.000          46.000
 11  1  1  0  1  0.0000000  0  9G18G21G14G19G12G27G09G15G22
 107183389.241 7  83519531.222 8  20396310.186    20396308.442    20396309.692
        44.000          48.000
 120690195.933 5  94044301.555 4  22966587.157    22966586.590    22966586.752
        30.100          27.100
 115775498.559 6  90214688.568 5  22031328.886    22031327.671    22031328.338
        38.000          34.000
 130978951.824 3 102061533.559 2  24924457.352    24924454.508    24924456.004
        21.100          17.000
 128845880.389 3 100399387.022 3  24518555.868    24518556.158    24518555.719
        23.000          19.300
 118520725.177 6  92353814.748 6  22553744.991    22553744.710    22553744.560
        37.000          36.000
 108325515.975 7  84409483.732 7  20613664.261    20613663.541    20613663.808
        47.000          43.000
 122220859.867 5  95237031.840 5  23257857.799    23257857.547    23257858.063
        33.000          32.000
 108582764.645 8  84609967.570 7  20662596.245    20662592.675    20662595.163
        48.000          47.000
 11  1  1  0  1 30.0000000  0  9G18G21G14G19G12G27G09G15G22
 107201305.546 7  83533491.980 8  20399719.893    20399717.820    20399719.206
        44.000          48.000
 120794739.512 5  94125764.041 4  22986481.478    22986480.587    22986480.631
        30.100          24.900
 115707890.954 6  90162007.332 5  22018463.674    22018462.454    22018463.110
        38.000          34.000
 131016760.541 3 102090994.862 2  24931652.549    24931649.771    24931651.297
        19.900          17.800
 128759047.132 3 100331724.803 2  24502031.982    24502031.773    24502031.727
        23.800          17.000
 118591322.986 6  92408826.017 5  22567179.124    22567179.000    22567178.846
        37.000          35.100
 108353277.504 8  84431116.099 7  20618947.079    20618946.361    20618946.659
        48.000          43.000
 122309654.077 5  95306222.135 5  23274754.770    23274754.295    23274754.870
        33.000          31.000
 108541804.162 8  84578050.312 7  20654801.407    20654798.109    20654800.426
        48.000          47.000
 11  1  1  0  2  0.0000000  0  9G18G21G14G19G12G27G09G15G22
 107219630.817 7  83547771.421 8  20403206.866    20403204.989    20403206.336
        44.000          48.000
 120899502.512 5  94207397.510 4  23006416.896    23006416.282    23006416.323
        30.100          24.900
 115640535.561 6  90109522.632 5  22005646.282    22005645.175    22005645.808
        39.000          34.000
 131055012.495 3 102120801.584 2  24938931.061    24938928.764    24938929.434
        19.900          17.000
 128672375.095 3 100264188.200 2  24485538.412    24485538.719    24485538.495
        21.100          17.800
 118662265.742 6  92464106.092 5  22580679.010    22580679.022    22580678.745
        37.000          35.100
 108381700.817 8  84453264.142 7  20624355.722    20624355.129    20624355.331
        48.000          43.000
 122398538.631 5  95375482.834 5  23291669.362    23291668.416    23291669.287
        33.000          31.000
 108501184.726 7  84546398.809 7  20647071.773    20647068.457    20647070.802
        47.000          47.000
 11  1  1  0  2 30.0000000  0  9G18G21G14G19G12G27G09G15G22
 107238365.407 7  83562369.805 8  20406771.995    20406770.077    20406771.441
        44.000          48.000
 121004482.339 5  94289199.876 3  23026394.734    23026393.440    23026393.778
        31.000          23.800
 115573432.838 6  90057234.828 5  21992876.923    21992875.895    21992876.637
        39.000          34.000
 131093706.259 3 102150952.543 2  24946293.558    24946292.277    24946292.514
        23.000          15.100
 128585867.427 3 100196779.719 3  24469076.276    24469076.915    24469076.836
        23.800          19.300
 118733551.155 6  92519653.172 6  22594244.404    22594244.141    22594243.945
        37.000          36.000
 108410783.959 7  84475926.334 7  20629890.146    20629889.480    20629889.717
        47.000          42.000
 122487512.318 5  95444812.970 5  23308600.243    23308599.776    23308600.586
        33.000          31.000
 108460907.994 7  84515014.344 7  20639407.565    20639404.077    20639406.416
        47.000          47.000
 11  1  1  0  3  0.0000000  0  9G18G21G14G19G12G27G09G15G22
 107257509.947 7  83577287.629 8  20410415.083    20410413.244    20410414.441
        44.000          48.000
 121109676.151 5  94371169.049 3  23046412.093    23046410.803    23046411.198
        31.000          23.000
 115506582.969 6  90005144.036 5  21980155.829    21980154.863    21980155.362
        38.000          35.100
 131132839.666 3 102181446.119 2  24953740.628    24953739.374    24953739.977
        22.100          16.100
 128499527.432 4 100129501.847 3  24452647.856    24452646.778    24452647.508
        24.900          19.300
 118805176.830 6  92575465.393 5  22607874.290    22607874.073    22607873.925
        37.000          35.100
 108440525.529 8  84499101.586 7  20635549.894    20635549.026    20635549.456
        48.000          42.000
 122576574.080 5  95514211.737 5  23325547.278    23325547.581    23325548.160
        32.000          30.100
 108420975.298 7  84483897.958 7  20631808.570    20631805.108    20631807.381
        47.000          47.000
 11  1  1  0  3 30.0000000  0  9G18G21G14G19G12G27G09G15G22
 107277064.699 7  83592525.091 8  20414136.150    20414134.339    20414135.645
        44.000          48.000
 121215081.064 4  94453302.726 3  23066469.630    23066468.767    23066468.850
        28.100          22.100
 115439986.063 6  89953250.356 5  21967482.625    21967481.996    21967482.264
        38.000          35.100
 131172410.530 3 102212280.547 1  24961271.065    24961268.959    24961270.636
        22.100          11.000
 128413358.362 4 100062357.179 3  24436249.827    24436249.199    24436249.596
        24.900          21.100
 118877140.565 6  92631541.035 5  22621568.616    22621568.208    22621568.288
        38.000          35.100
 108470924.293 8  84522788.940 7  20641334.670    20641333.715    20641334.187
        48.000          42.000
 122665722.948 5  95583678.366 5  23342513.027    23342511.793    23342512.951
        32.000          30.100
 108381388.201 7  84453050.873 7  20624275.301    20624271.947    20624274.259
        47.000          47.000
 11  1  1  0  4  0.0000000  0  9G18G21G14G19G12G27G09G15G22
 107297030.281 7  83608082.678 8  20417935.398    20417933.646    20417934.915
        44.000          48.000
 121320694.448 4  94535598.840 3  23086567.109    23086567.109    23086566.255
        29.000          23.000
 115373643.141 6  89901554.606 5  21954858.047    21954857.253    21954857.421
        38.000          35.100
 131212416.750 3 102243454.209 2  24968884.292    24968881.062    24968883.369
        23.800          13.900
 128327363.725 3  99995348.441 2  24419884.933    24419884.559    24419885.193
        23.000          15.100
 118949440.114 6  92687878.348 5  22635326.709    22635326.516    22635326.410
        37.000          35.100
 108501978.953 7  84546987.388 7  20647243.835    20647243.241    20647243.471
        47.000          42.000
 122754957.574 5  95653211.843 5  23359493.941    23359492.990    23359494.054
        32.000          31.000
 108342148.097 8  84422474.170 7  20616808.271    20616804.767    20616807.189
        48.000          47.000
 11  1  1  0  4 30.0000000  0  9G18G21G14G19G12G27G09G15G22
 107317407.211 7  83623960.802 8  20421813.399    20421811.246    20421812.676
        44.000          48.000
 121426513.359 4  94618055.096 3  23106703.385    23106703.206    23106702.804
        29.000          23.000
 115307554.367 6  89850056.871 5  21942282.311    21942281.038    21942281.740
        39.000          35.100
 131252856.672 3 102274965.839 2  24976579.853    24976577.131    24976578.284
        21.100          15.100
 128241546.276 3  99928477.755 3  24403553.884    24403553.928    24403554.745
        23.800          19.300
 119022073.070 6  92744475.461 5  22649148.159    22649148.201    22649147.886
        37.000          35.100
 108533687.736 7  84571695.535 7  20653277.884    20653277.268    20653277.539
        47.000          42.000
 122844277.157 5  95722811.499 5  23376490.083    23376490.419    23376490.477
        31.000          32.000
 108303256.306 8  84392168.884 7  20609407.417    20609403.906    20609406.311
        48.000          47.000
 11  1  1  0  5  0.0000000  0  9G18G21G14G19G12G27G09G15G22
 107338195.859 7  83640159.737 8  20425769.005    20425767.307    20425768.517
        44.000          48.000
 121532534.938 4  94700669.231 3  23126878.545    23126878.204    23126877.989
        25.900          22.100
 115241720.129 6  89798757.492 5  21929754.280    21929753.078    21929753.788
        40.000          35.100
 131293728.172 4 102306813.742 2  24984356.669    24984355.307    24984356.028
        24.900          15.100
 128155909.305 3  99861747.720 3  24387257.872    24387258.250    24387258.344
        22.100          19.300
 119095037.223 6  92801330.647 5  22663033.019    22663032.695    22663032.560
        37.000          34.000
 108566049.070 7  84596912.160 7  20659436.036    20659435.532    20659435.692
        47.000          42.000
 122933680.304 5  95792476.271 5  23393503.371    23393503.095    23393503.203
        31.000          31.000
 108264714.319 8  84362136.169 7  20602073.169    20602069.600    20602072.042
        48.000          47.000
 11  1  1  0  5 30.0000000  0  9G18G21G14G19G12G27G09G15G22
 107359396.475 7  83656679.687 8  20429803.346    20429801.625    20429802.814
        44.000          48.000
 121638756.151 4  94783438.963 3  23147092.381    23147091.422    23147091.828
        28.100          22.100
 115176140.574 6  89747656.572 5  21917274.350    21917273.524    21917274.002
        39.000          35.100
 131335029.035 3 102338996.253 2  24992216.670    24992214.844    24992215.314
        23.800          15.100
 128070455.992 3  99795160.798 3  24370997.113    24370997.524    24370996.897
        23.000          22.100
 119168330.423 6  92858442.242 5  22676980.248    22676980.015    22676979.749
        37.000          35.100
 108599061.500 7  84622636.138 7  20665718.317    20665717.473    20665717.893
        47.000          42.000
 123023166.055 5  95862205.418 5  23410531.652    23410531.380    23410531.960
        32.000          30.100
 108226523.551 8  84332377.128 7  20594805.567    20594802.108    20594804.479
        48.000          47.000
 11  1  1  0  6  0.0000000  0  9G18G21G14G19G12G27G09G15G22
 107381009.468 7  83673520.977 8  20433916.484    20433914.418    20433915.741
        44.000          48.000
 121745174.494 4  94866362.298 3  23167343.615    23167341.856    23167342.605
        28.100          21.100
 115110816.127 6  89696754.414 5  21904843.800    21904842.693    21904843.398
        39.000          35.100
 131376757.465 3 102371511.930 2  25000156.894    25000154.861    25000155.451
        23.800          13.900
 127985189.633 3  99728719.527 3  24354771.714    24354771.452    24354771.280
        23.000          23.000
 119241950.216 6  92915808.317 5  22690989.384    22690989.361    22690989.017
        36.000          35.100
 108632723.223 7  84648866.058 7  20672123.682    20672123.011    20672123.291
        47.000          42.000
 123112733.441 5  95931998.187 5  23427575.285    23427575.071    23427575.920
        31.000          30.100
 108188685.386 8  84302892.843 7  20587605.077    20587601.755    20587604.058
        48.000          47.000
 11  1  1  0  6 30.0000000  0  9G18G21G14G19G12G27G09G15G22
 107403035.478 7  83690684.100 8  20438107.475    20438105.824    20438107.023
        44.000          48.000
 121851787.002 4  94949436.934 3  23187630.452    23187629.645    23187629.847
        27.100          21.100
 115045747.275 6  89646051.433 5  21892461.589    21892460.599    21892461.132
        39.000          35.100
 131418911.184 3 102404358.970 2  25008178.837    25008176.091    25008177.624
        23.800          16.100
 127900113.224 3  99662426.329 3  24338581.391    24338582.248    24338580.999
        19.300          23.800
 119315894.428 6  92973427.189 5  22705060.489    22705060.350    22705060.022
        36.000          34.000
 108667032.847 7  84675600.833 7  20678652.577    20678651.921    20678652.220
        47.000          42.000
 123202381.236 5  96001853.598 5  23444635.294    23444634.783    23444635.295
        31.000          31.000
 108151201.492 8  84273684.612 7  20580472.254    20580468.815    20580471.170
        48.000          47.000
 11  1  1  0  7  0.0000000  0  9G18G21G14G19G12G27G09G15G22
 107425474.749 7  83708169.239 8  20442377.625    20442375.973    20442377.114
        44.000          48.000
 121958590.638 4  95032660.456 3  23207954.978    23207954.169    23207954.359
        28.100          23.000
 114980934.414 6  89595547.928 5  21880128.119    21880127.133    21880127.574
        39.000          35.100
 131461488.089 3 102437535.798 2  25016281.177    25016277.783    25016279.559
        23.800          13.900
 127815230.361 3  99596283.901 3  24322428.479    24322429.211    24322428.997
        23.000          23.000
 119390160.728 6  93031297.039 5  22719192.699    22719193.026    22719192.439
        36.000          35.100
 108701988.592 7  84702839.082 7  20685304.402    20685303.813    20685304.084
        47.000          42.000
 123292108.450 5  96071770.901 5  23461710.259    23461709.488    23461710.214
        31.000          30.100
 108114073.221 8  84244753.492 7  20573406.858    20573403.611    20573405.958
        48.000          47.000
 11  1  1  0  7 30.0000000  0  9G18G21G14G19G12G27G09G15G22
 107448327.465 7  83725976.550 8  20446726.523    20446724.621    20446725.872
        44.000          48.000
 122065583.155 4  95116031.243 3  23228314.514    23228314.310    23228314.139
        28.100          22.100
 114916377.834 6  89545244.110 5  21867843.223    21867842.424    21867842.784
        39.000          35.100
 131504486.076 4 102471040.694 2  25024463.669    25024460.389    25024462.203
        24.900          13.900
 127730543.995 4  99530294.605 3  24306313.656    24306313.530    24306313.233
        24.900          23.000
 119464746.704 6  93089415.981 5  22733386.041    22733385.951    22733385.768
        36.000          34.000
 108737588.676 7  84730579.408 7  20692078.904    20692078.276    20692078.502
        47.000          42.000
 123381914.023 5  96141749.288 4  23478799.771    23478798.613    23478799.698
        31.000          29.000
 108077302.095 8  84216100.661 8  20566409.723    20566406.341    20566408.584
        48.000          48.000
 11  1  1  0  8  0.0000000  0  9G18G21G14G19G12G27G09G15G22
 107471594.073 7  83744106.370 7  20451153.610    20451152.055    20451153.241
        44.000          47.000
 122172761.259 4  95199546.729 3  23248709.284    23248709.645    23248708.947
        27.100          23.000
 114852077.736 6  89495140.156 5  21855607.356    21855606.325    21855607.048
        40.000          35.100
 131547903.043 4 102504872.081 2  25032725.106    25032722.420    25032723.925
        24.900          17.800
 127646057.459 3  99464460.999 4  24290235.923    24290236.474    24290236.018
        23.000          24.900
 119539649.927 6  93147782.134 5  22747639.870    22747639.592    22747639.440
        36.000          34.000
 108773831.885 7  84758820.875 7  20698975.695    20698975.125    20698975.356
        47.000          42.000
 123471796.893 5  96211787.897 4  23495903.819    23495902.761    23495903.859
        31.000          29.000
 108040889.393 8  84187727.127 8  20559480.572    20559477.298    20559479.453
        48.000          48.000
 11  1  1  0  8 30.0000000  0  9G18G21G14G19G12G27G09G15G22
 107495275.042 7  83762559.070 7  20455660.202    20455658.482    20455659.572
        44.000          47.000
 122280121.670 4  95283204.206 3  23269139.705    23269139.477    23269139.644
        29.000          23.000
 114788034.494 6  89445236.357 6  21843420.166    21843419.403    21843419.859
        39.000          36.000
 131591736.706 3 102539028.165 3  25041066.251    25041064.450    25041064.703
        22.100          19.300
 127561773.703 3  99398785.429 3  24274197.487    24274197.772    24274197.443
        23.800          23.800
 119614868.267 6  93206393.833 5  22761953.151    22761953.272    22761952.967
        36.000          34.000
 108810716.231 7  84787561.933 7  20705994.484    20705994.007    20705994.231
        47.000          42.000
 123561756.219 5  96281886.065 5  23513021.581    23513021.811    23513022.131
        31.000          30.100
 108004836.742 8  84159634.153 8  20552619.967    20552616.714    20552618.903
        48.000          48.000
 11  1  1  0  9  0.0000000  0  9G18G21G14G19G12G27G09G15G22
 107519370.614 7  83781334.829 7  20460245.361    20460243.718    20460244.791
        44.000          47.000
 122387661.783 4  95367001.629 3  23289603.893    23289604.022    23289603.714
        28.100          23.800
 114724248.473 6  89395532.978 6  21831282.450    21831281.308    21831281.856
        39.000          36.000
 131635984.862 4 102573507.226 3  25049486.597    25049484.286    25049485.593
        24.900          19.300
 127477696.157 3  99333270.521 3  24258198.799    24258198.409    24258198.407
        23.000          23.000
 119690399.338 6  93265249.216 5  22776326.500    22776326.295    22776326.045
        36.000          34.000
 108848240.113 7  84816801.328 7  20713135.122    20713134.459    20713134.824
        47.000          42.000
 123651790.791 5  96352042.870 5  23530154.878    23530154.661    23530155.180
        31.000          30.100
 107969145.284 8  84131822.625 8  20545828.141    20545824.769    20545827.053
        48.000          48.000
 11  1  1  0  9 30.0000000  0  9G18G21G14G19G12G27G09G15G22
 107543880.986 7  83800433.819 7  20464909.552    20464907.853    20464909.038
        45.000          47.000
 122495378.869 4  95450936.938 3  23310102.987    23310102.987    23310102.033
        27.100          23.000
 114660720.238 6  89346030.478 5  21819193.212    21819192.140    21819192.956
        40.000          35.100
 131680645.412 3 102608307.667 3  25057984.859    25057983.304    25057983.919
        23.000          19.300
 127393828.123 3  99267918.888 3  24242237.708    24242238.665    24242237.881
        22.100          21.100
 119766240.730 6  93324346.401 5  22790758.726    22790758.436    22790758.250
        36.000          33.000
 108886401.258 7  84846537.285 7  20720396.946    20720396.362    20720396.569
        47.000          42.000
 123741899.487 5  96422257.440 4  23547302.654    23547301.559    23547302.301
        31.000          29.000
 107933816.635 8  84104293.810 8  20539105.351    20539101.919    20539104.217
        48.000          48.000
 11  1  1  0 10  0.0000000  0  9G18G21G14G19G12G27G09G15G22
 107568806.635 7  83819856.379 7  20469652.792    20469651.089    20469652.260
        44.000          47.000
 122603270.081 4  95535007.955 3  23330633.006    23330632.789    23330632.890
        25.900          23.000
 114597450.044 6  89296729.037 5  21807153.331    21807152.046    21807152.988
        40.000          35.100
 131725716.403 3 102643427.901 2  25066562.526    25066559.471    25066561.191
        23.000          17.800
 127310172.595 3  99202732.825 3  24226319.802    24226319.734    24226319.167
        22.100          22.100
 119842390.269 6  93383683.707 5  22805249.515    22805249.341    22805248.995
        36.000          34.000
 108925198.249 7  84876768.705 6  20727779.926    20727779.132    20727779.491
        47.000          41.000
 123832081.563 5  96492529.184 4  23564463.128    23564462.215    23564463.235
        30.100          28.100
 107898852.187 8  84077048.784 8  20532451.835    20532448.345    20532450.728
        48.000          48.000
 11  1  1  0 10 30.0000000  0  9G18G21G14G19G12G27G09G15G22
 107594147.838 7  83839602.771 7  20474475.043    20474473.329    20474474.513
        44.000          47.000
 122711332.510 4  95619212.339 3  23351196.887    23351196.842    23351196.466
        25.900          22.100
 114534437.998 6  89247628.757 5  21795162.483    21795161.376    21795162.121
        40.000          35.100
 131771195.504 3 102678866.173 2  25075216.178    25075214.455    25075215.462
        23.000          17.800
 127226732.888 4  99137714.927 3  24210441.043    24210440.790    24210441.390
        25.900          19.300
 119918845.794 6  93443259.446 5  22819798.166    22819798.429    22819798.004
        36.000          33.000
 108964629.496 7  84907494.364 6  20735283.244    20735282.647    20735282.953
        47.000          41.000
 123922335.890 4  96562857.233 4  23581638.262    23581637.439    23581637.848
        29.000          28.100
 107864253.398 8  84050088.692 8  20525867.877    20525864.322    20525866.879
        48.000          48.000
 11  1  1  0 11  0.0000000  0  9G18G21G14G19G12G27G09G15G22
 107619904.899 7  83859673.215 7  20479376.396    20479374.654    20479375.933
        44.000          47.000
 122819563.393 4  95703547.964 2  23371792.935    23371791.839    23371792.316
        27.100          17.800
 114471684.597 6  89198730.017 6  21783221.126    21783219.906    21783220.710
        40.000          36.000
 131817080.471 3 102714620.668 2  25083946.677    25083945.586    25083946.290
        19.300          17.000
 127143512.226 3  99072867.699 3  24194605.995    24194604.598    24194605.130
        23.800          22.100
 119995604.861 6  93503071.709 5  22834404.975    22834405.350    22834404.757
        36.000          34.000
 109004692.990 7  84938712.671 6  20742907.287    20742906.529    20742906.928
        47.000          41.000
 124012661.484 5  96633240.810 4  23598827.170    23598826.289    23598827.010
        31.000          29.000
 107830021.607 8  84023414.570 8  20519353.992    20519350.223    20519352.832
        48.000          48.000
 11  1  1  0 11 30.0000000  0  9G18G21G14G19G12G27G09G15G22
 107646078.167 7  83880067.977 7  20484357.268    20484355.291    20484356.560
        44.000          47.000
 122927960.010 4  95788012.801 3  23392420.474    23392419.371    23392419.806
        27.100          19.300
 114409190.227 6  89150033.112 6  21771328.639    21771327.562    21771328.227
        40.000          36.000
 131863369.073 2 102750689.700 2  25092756.284    25092753.725    25092753.925
        16.100          17.000
 127060513.662 4  99008193.557 3  24178811.590    24178810.168    24178811.209
        27.100          19.300
 120072665.349 6  93563118.843 5  22849069.346    22849069.330    22849068.935
        36.000          34.000
 109045386.639 7  84970422.009 6  20750650.881    20750650.155    20750650.513
        47.000          41.000
 124103057.051 5  96703678.883 4  23616028.729    23616027.699    23616028.675
        30.100          27.100
 107796158.111 8  83997027.432 8  20512909.968    20512906.316    20512908.827
        48.000          48.000
 11  1  1  0 12  0.0000000  0  9G18G21G14G19G12G27G09G15G22
 107672667.887 7  83900787.236 7  20489416.801    20489415.217    20489416.318
        45.000          47.000
 123036519.169 4  95872604.280 3  23413078.359    23413077.517    23413078.335
        27.100          19.300
 114346955.050 6  89101538.190 6  21759485.555    21759484.724    21759485.170
        40.000          37.000
 131910058.813 3 102787071.276 3  25101640.492    25101639.295    25101640.097
        19.300          21.100
 126977740.500 4  98943695.022 3  24163060.513    24163059.083    24163060.341
        29.000          22.100
 120150024.841 5  93623398.972 5  22863790.361    22863789.945    22863789.966
        35.100          34.000
 109086708.922 7  85002621.196 6  20758514.284    20758513.685    20758513.962
        46.000          41.000
 124193521.875 4  96774170.945 4  23633243.238    23633242.332    23633243.488
        29.000          27.100
 107762664.398 8  83970928.439 8  20506536.202    20506532.730    20506535.125
        48.000          48.000
 11  1  1  0 12 30.0000000  0  9G18G21G14G19G12G27G09G15G22
 107699674.064 7  83921830.998 7  20494555.997    20494554.331    20494555.509
        45.000          47.000
 123145238.292 4  95957320.386 3  23433767.465    23433766.593    23433766.617
        25.900          23.000
 114284979.495 6  89053245.568 6  21747692.341    21747691.242    21747691.752
        40.000          37.000
 131957147.763 2 102823763.937 3  25110602.677    25110599.619    25110601.370
        16.100          19.300
 126895195.906 4  98879374.620 3  24147352.048    24147351.679    24147351.988
        24.900          23.000
 120227680.906 5  93683910.200 5  22878567.807    22878567.569    22878567.461
        35.100          33.000
 109128657.918 7  85035308.727 6  20766496.886    20766496.362    20766496.531
        46.000          41.000
 124284054.911 5  96844716.163 4  23650471.868    23650469.977    23650471.755
        31.000          25.900
 107729541.989 8  83945118.771 8  20500232.974    20500229.749    20500231.941
        48.000          48.000
 11  1  1  0 13  0.0000000  0  9G18G21G14G19G12G27G09G15G22
 107727097.333 7  83943199.782 7  20499774.423    20499772.858    20499773.889
        45.000          47.000
 123254114.570 4  96042159.069 3  23454485.250    23454484.560    23454484.619
        25.900          19.900
 114223263.817 6  89005155.440 6  21735948.191    21735946.790    21735947.607
        40.000          36.000
 132004633.763 2 102860765.978 3  25119639.053    25119636.135    25119637.909
        17.000          19.900
 126812883.141 3  98815234.878 3  24131687.710    24131687.798    24131687.785
        23.000          23.000
 120305631.002 5  93744650.530 5  22893400.996    22893400.682    22893400.770
        35.100          32.000
 109171231.687 7  85068483.094 6  20774598.502    20774597.752    20774598.051
        47.000          41.000
 124374655.117 5  96915313.734 4  23667712.318    23667710.983    23667712.016
        30.100          28.100
 107696792.177 8  83919599.439 8  20494000.918    20493997.725    20493999.815
        48.000          48.000
 11  1  1  0 13 30.0000000  0  9G18G21G14G19G12G27G09G15G22
 107754937.954 7  83964893.778 7  20505072.254    20505070.730    20505071.752
        44.000          47.000
 123363144.850 4  96127117.652 3  23475233.221    23475233.221    23475232.690
        27.100          19.900
 114161808.351 6  88957268.082 6  21724253.183    21724252.188    21724252.774
        40.000          36.000
 132052514.341 3 102898075.493 3  25128749.531    25128747.720    25128747.741
        19.300          19.900
 126730805.235 3  98751278.127 3  24116069.608    24116069.182    24116068.617
        22.100          23.800
 120383872.926 5  93805618.270 5  22908289.971    22908289.794    22908289.670
        35.100          33.000
 109214428.218 7  85102142.734 6  20782818.361    20782817.828    20782817.945
        46.000          41.000
 124465321.746 5  96985963.029 5  23684965.133    23684965.133    23684965.284
        30.100          30.100
 107664416.382 8  83894371.548 8  20487840.023    20487836.769    20487838.991
        48.000          48.000
 11  1  1  0 14  0.0000000  0  9G18G21G14G19G12G27G09G15G22
 107783195.699 7  83986912.803 7  20510449.663    20510447.938    20510449.145
        45.000          47.000
 123472326.459 4  96212194.159 2  23496009.165    23496009.136    23496009.020
        24.900          17.800
 114100613.390 6  88909583.711 6  21712608.578    21712607.158    21712608.029
        41.000          36.000
 132100787.024 3 102935690.578 3  25137934.509    25137933.279    25137934.385
        19.900          19.900
 126648965.500 3  98687506.951 3  24100494.652    24100495.433    24100495.239
        23.000          23.000
 120462404.620 5  93866811.794 5  22923233.789    22923234.021    22923233.740
        35.100          33.000
 109258245.375 7  85136285.978 6  20791156.348    20791156.012    20791156.105
        46.000          41.000
 124556053.595 5  97056663.151 4  23702231.400    23702229.812    23702231.211
        31.000          29.000
 107632415.943 8  83869436.142 8  20481750.495    20481747.264    20481749.428
        48.000          49.000
 11  1  1  0 14 30.0000000  0  9G18G21G14G19G12G27G09G15G22
 107811871.100 7  84009257.275 7  20515906.504    20515904.630    20515905.943
        45.000          46.000
 123581656.336 4  96297386.211 3  23516814.766    23516814.187    23516813.829
        24.900          19.900
 114039679.265 6  88862102.594 6  21701012.874    21701011.981    21701012.427
        41.000          37.000
 132149449.789 3 102973609.603 2  25147195.821    25147193.087    25147194.925
        21.100          17.000
 126567367.020 3  98623923.807 3  24084967.870    24084967.883    24084967.530
        23.000          23.800
 120541223.597 5  93928229.175 5  22938232.859    22938232.911    22938232.573
        35.100          33.000
 109302681.315 7  85170911.390 6  20799612.347    20799611.743    20799611.966
        46.000          41.000
 124646849.882 5  97127413.523 4  23719509.122    23719507.765    23719509.262
        31.000          28.100
 107600792.264 8  83844794.314 8  20475732.640    20475729.457    20475731.591
        48.000          49.000
 11  1  1  0 15  0.0000000  0  9G18G21G14G19G12G27G09G15G22
 107840964.425 7  84031927.404 7  20521442.554    20521440.883    20521442.073
        45.000          46.000
 123691131.789 3  96382691.728 2  23537647.450    23537646.017    23537646.491
        23.800          17.800
 113979006.372 6  88814825.027 6  21689466.860    21689466.252    21689466.528
        41.000          37.000
 132198500.205 3 103011830.702 3  25156529.608    25156526.926    25156528.489
        21.100          19.300
 126486013.274 3  98560531.309 3  24069485.990    24069486.383    24069486.448
        23.800          22.100
 120620327.424 5  93989868.520 5  22953286.148    22953285.821    22953285.742
        35.100          33.000
 109347733.974 7  85206017.356 6  20808185.719    20808184.917    20808185.280
        46.000          41.000
 124737709.455 5  97198213.198 4  23736799.079    23736797.988    23736798.879
        30.100          28.100
 107569546.763 8  83820447.169 8  20469786.929    20469783.602    20469785.885
        48.000          49.000
 11  1  1  0 15 30.0000000  0  9G18G21G14G19G12G27G09G15G22
 107870475.702 7  84054923.198 7  20527058.631    20527056.695    20527057.976
        45.000          46.000
 123800750.000 4  96468108.456 3  23558506.413    23558506.887    23558505.903
        24.900          22.100
 113918595.104 6  88767751.321 6  21677971.093    21677970.235    21677970.778
        41.000          37.000
 132247935.898 3 103050352.017 3  25165936.747    25165935.077    25165935.771
        21.100          19.300
 126404907.248 4  98497331.858 3  24054052.869    24054052.069    24054052.669
        24.900          22.100
 120699713.906 5  94051728.120 5  22968392.537    22968392.535    22968392.257
        35.100          33.000
 109393401.508 7  85241602.447 6  20816875.867    20816875.177    20816875.493
        46.000          41.000
 124828631.459 5  97269061.489 4  23754100.841    23754100.131    23754100.794
        30.100          29.000
 107538680.671 8  83796395.666 8  20463913.444    20463909.977    20463912.261
        48.000          49.000
 11  1  1  0 16  0.0000000  0  9G18G21G14G19G12G27G09G15G22
 107900405.184 7  84078244.874 7  20532754.055    20532752.161    20532753.348
        45.000          46.000
 123910508.150 4  96553634.183 3  23579392.652    23579393.223    23579392.447
        24.900          22.100
 113858445.369 6  88720881.417 6  21666525.512    21666524.253    21666524.828
        41.000          37.000
 132297754.615 3 103089171.772 3  25175417.781    25175415.105    25175416.011
        19.300          19.300
 126324052.090 4  98434327.876 4  24038666.716    24038666.192    24038666.431
        24.900          24.900
 120779380.631 5  94113806.086 5  22983552.409    22983552.571    22983552.170
        35.100          33.000
 109439682.010 7  85277665.180 6  20825682.714    20825682.153    20825682.317
        46.000          41.000
 124919614.748 5  97339957.543 4  23771414.080    23771413.806    23771414.567
        30.100          29.000
 107508195.583 8  83772641.048 8  20458112.223    20458108.901    20458111.169
        48.000          49.000
 11  1  1  0 16 30.0000000  0  9G18G21G14G19G12G27G09G15G22
 107930752.949 7  84101892.489 7  20538528.891    20538527.145    20538528.345
        45.000          46.000
 124020403.360 4  96639266.808 3  23600304.906    23600305.234    23600304.812
        24.900          19.300
 113798557.730 6  88674215.750 6  21655129.226    21655128.040    21655128.849
        41.000          37.000
 132347953.796 3 103128287.971 3  25184969.474    25184967.562    25184968.367
        21.100          19.300
 126243450.862 4  98371521.769 4  24023329.101    24023328.402    24023328.495
        27.100          24.900
 120859325.353 5  94176100.673 5  22998765.856    22998765.447    22998765.323
        34.000          33.000
 109486573.120 7  85314203.711 6  20834605.651    20834605.275    20834605.317
        46.000          41.000
 125010658.605 5  97410900.786 4  23788739.801    23788738.675    23788739.639
        30.100          28.100
 107478092.862 8  83749184.385 8  20452383.973    20452380.607    20452382.871
        49.000          49.000
 11  1  1  0 17  0.0000000  0  9G18G21G14G19G12G27G09G15G22
 107961519.425 7  84125866.362 7  20544383.562    20544381.818    20544382.906
        44.000          46.000
 124130432.796 3  96725004.017 3  23621244.134    23621243.547    23621242.947
        23.000          19.900
 113738932.364 7  88627754.436 6  21643782.922    21643781.548    21643782.341
        42.000          37.000
 132398530.792 3 103167698.605 3  25194595.149    25194592.036    25194593.495
        21.100          21.100
 126163107.061 3  98308916.287 4  24008039.292    24008039.103    24008039.080
        23.800          25.900
 120939545.901 5  94238610.200 5  23014031.683    23014030.849    23014031.056
        35.100          32.000
 109534072.960 7  85351216.575 6  20843644.874    20843644.093    20843644.465
        46.000          41.000
 125101762.039 4  97481890.462 4  23806075.920    23806074.993    23806075.870
        29.000          28.100
 107448373.945 8  83726026.791 8  20446728.521    20446725.289    20446727.490
        49.000          49.000
 11  1  1  0 17 30.0000000  0  9G18G21G14G19G12G27G09G15G22
 107992704.728 7  84150166.600 7  20550317.717    20550316.198    20550317.276
        45.000          46.000
 124240593.371 4  96810843.435 2  23642206.030    23642205.644    23642205.796
        24.900          16.100
 113679569.655 6  88581497.788 6  21632486.367    21632485.090    21632485.995
        41.000          37.000
 132449483.946 3 103207402.331 3  25204291.099    25204288.164    25204289.148
        22.100          19.300
 126083023.441 4  98246513.523 4  23992799.571    23992800.029    23992799.951
        25.900          25.900
 121020039.854 5  94301332.761 5  23029348.976    23029348.526    23029348.519
        35.100          33.000
 109582179.370 7  85388702.092 6  20852799.147    20852798.469    20852798.747
        46.000          40.000
 125192924.320 5  97552925.979 4  23823423.794    23823422.828    23823423.786
        30.100          28.100
 107419039.905 8  83703169.095 8  20441146.381    20441143.120    20441145.411
        49.000          49.000
 11  1  1  0 18  0.0000000  0  9G18G21G14G19G12G27G09G15G22
 108024308.872 7  84174793.208 7  20556332.043    20556330.178    20556331.427
        44.000          45.000
 124350882.125 3  96896782.601 3  23663193.605    23663193.315    23663193.082
        23.000          19.300
 113620469.209 7  88535445.499 6  21621239.932    21621238.778    21621239.469
        42.000          37.000
 132500810.834 3 103247397.292 2  25214057.561    25214055.386    25214056.785
        22.100          17.800
 126003203.546 4  98184316.239 4  23977611.712    23977610.544    23977611.208
        28.100          25.900
 121100804.954 5  94364266.612 5  23044717.923    23044717.632    23044717.652
        35.100          32.000
 109630889.983 7  85426658.415 6  20862068.363    20862067.696    20862068.020
        46.000          41.000
 125284144.443 4  97624006.573 4  23840782.646    23840781.601    23840782.644
        29.000          28.100
 107390092.348 8  83680612.560 8  20435637.955    20435634.576    20435636.895
        49.000          49.000
 11  1  1  0 18 30.0000000  0  9G18G21G14G19G12G27G09G15G22
 108056331.926 7  84199746.254 7  20562425.825    20562423.919    20562425.200
        45.000          46.000
 124461296.595 3  96982819.772 2  23684205.009    23684204.351    23684204.105
        23.000          15.100
 113561632.484 6  88489598.714 6  21610043.786    21610042.439    21610043.215
        41.000          37.000
 132552508.762 3 103287681.380 2  25223896.136    25223893.254    25223894.935
        19.300          17.800
 125923650.462 4  98122326.879 4  23962473.366    23962472.084    23962472.849
        28.100          25.900
 121181838.915 5  94427409.960 5  23060138.498    23060137.645    23060137.865
        35.100          32.000
 109680202.961 7  85465084.118 6  20871452.169    20871451.672    20871451.850
        46.000          40.000
 125375421.348 4  97695131.413 4  23858151.334    23858150.204    23858151.552
        28.100          25.900
 107361532.928 8  83658358.466 8  20430203.320    20430199.900    20430202.167
        49.000          49.000
 11  1  1  0 19  0.0000000  0  9G18G21G14G19G12G27G09G15G22
 108088774.196 7  84225025.955 7  20568599.006    20568597.458    20568598.586
        45.000          45.000
 124571833.989 4  97068952.792 2  23705239.047    23705239.255    23705238.883
        25.900          17.000
 113503059.419 6  88443957.381 6  21598897.364    21598896.359    21598897.006
        41.000          37.000
 132604574.856 3 103328252.314 2  25233804.102    25233801.136    25233802.233
        21.100          12.600
 125844367.486 4  98060547.945 3  23947385.833    23947384.917    23947385.253
        27.100          23.000
 121263139.358 5  94490760.957 5  23075609.215    23075608.745    23075608.729
        35.100          32.000
 109730115.938 7  85503977.347 6  20880950.377    20880949.825    20880950.085
        46.000          40.000
 125466754.091 4  97766299.756 4  23875531.810    23875529.993    23875531.534
        28.100          24.900
 107333362.184 8  83636407.239 8  20424842.532    20424839.184    20424841.463
        49.000          49.000
 11  1  1  0 19 30.0000000  0  9G18G21G14G19G12G27G09G15G22
 108121635.846 7  84250632.435 7  20574852.902    20574850.887    20574852.073
        45.000          45.000
 124682491.167 4  97155179.150 2  23726297.290    23726296.612    23726296.811
        27.100          16.100
 113444749.817 6  88398521.341 6  21587801.280    21587800.494    21587800.896
        41.000          38.000
 132657007.478 3 103369108.931 2  25243781.309    25243778.396    25243780.352
        21.100          13.900
 125765357.595 4  97998981.848 3  23932350.197    23932350.197    23932349.729
        24.900          23.000
 121344704.110 5  94554317.905 5  23091130.306    23091130.246    23091129.916
        35.100          32.000
 109780626.727 7  85543336.409 6  20890562.249    20890561.765    20890561.889
        45.000          40.000
 125558141.949 4  97837511.080 4  23892922.546    23892921.103    23892922.266
        27.100          24.900
 107305581.640 8  83614760.061 8  20419556.119    20419552.698    20419555.042
        49.000          49.000
 11  1  1  0 20  0.0000000  0  9G18G21G14G19G12G27G09G15G22
 108154916.714 7  84276565.569 7  20581185.563    20581184.024    20581185.232
        45.000          45.000
 124793265.520 3  97241496.831 2  23747376.501    23747376.060    23747376.317
        23.800          13.900
 113386704.224 6  88353291.026 6  21576755.651    21576754.768    21576755.298
        41.000          38.000
 132709803.953 3 103410249.002 2  25253828.088    25253825.675    25253826.348
        19.300          17.000
 125686623.843 4  97937630.911 4  23917366.629    23917367.139    23917367.236
        25.900          24.900
 121426530.786 5  94618078.951 5  23106701.393    23106701.015    23106700.944
        34.000          31.000
 109831733.164 7  85583159.610 6  20900287.676    20900287.046    20900287.218
        45.000          40.000
 125649583.950 4  97908764.565 4  23910322.841    23910322.208    23910322.587
        28.100          27.100
 107278192.830 8  83593418.131 8  20414344.092    20414340.839    20414343.092
        49.000          49.000
 11  1  1  0 20 30.0000000  0  9G18G21G14G19G12G27G09G15G22
 108188616.829 7  84302825.373 7  20587598.746    20587596.891    20587598.194
        45.000          45.000
 124904153.886 4  97327903.347 2  23768478.136    23768477.667    23768477.453
        24.900          17.000
 113328922.969 6  88308266.690 6  21565760.029    21565759.309    21565759.669
        41.000          38.000
 132762961.678 3 103451670.590 2  25263943.110    25263941.470    25263941.647
        19.300          12.600
 125608169.370 4  97876497.609 3  23902437.160    23902437.265    23902438.116
        27.100          23.000
 121508616.821 5  94682042.116 5  23122321.461    23122321.651    23122321.325
        34.000          32.000
 109883433.346 7  85623445.469 6  20910125.754    20910125.241    20910125.310
        45.000          40.000
 125741079.138 4  97980059.495 4  23927733.781    23927733.343    23927733.702
        27.100          25.900
 107251197.485 8  83572382.804 8  20409207.273    20409203.852    20409206.122
        49.000          50.000
 11  1  1  0 21  0.0000000  0  9G18G21G14G19G12G27G09G15G22
 108222736.591 7  84329412.198 7  20594091.531    20594089.754    20594090.971
        45.000          45.000
 125015153.751 3  97414396.678 2  23789600.079    23789600.108    23789599.407
        22.100          15.100
 113271406.164 6  88263448.417 6  21554815.017    21554814.223    21554814.645
        41.000          38.000
 132816478.517 2 103493372.059 1  25274126.709    25274125.304    25274126.148
        17.000          11.000
 125529997.406 4  97815584.429 3  23887561.498    23887561.578    23887561.866
        27.100          22.100
 121590959.985 5  94746205.611 5  23137990.608    23137991.056    23137990.581
        34.000          31.000
 109935724.782 7  85664192.047 6  20920076.670    20920076.039    20920076.180
        45.000          41.000
 125832626.880 4  98051395.379 4  23945154.360    23945154.442    23945154.484
        27.100          25.900
 107224596.466 8  83551654.743 8  20404145.207    20404141.794    20404144.115
        49.000          50.000
 11  1  1  0 21 30.0000000  0  9G18G21G14G19G12G27G09G15G22
 108257275.951 7  84356325.986 7  20600664.151    20600662.351    20600663.706
        45.000          45.000
 125126262.187 3  97500974.711 2  23810744.285    23810743.382    23810743.293
        23.800          17.800
 113214154.141 6  88218836.466 6  21543920.544    21543919.486    21543920.098
        41.000          38.000
 132870351.644 2 103535351.105 1  25284378.655    25284376.648    25284377.965
        12.600           9.000
 125452111.190 4  97754893.903 3  23872741.286    23872740.644    23872740.399
        24.900          23.000
 121673558.064 5  94810567.753 5  23153708.799    23153708.760    23153708.537
        33.000          31.000
 109988605.152 7  85705397.526 6  20930139.421    20930138.852    20930139.038
        45.000          40.000
 125924225.942 5  98122771.240 4  23962585.762    23962584.810    23962585.736
        30.100          25.900
 107198391.148 8  83531235.015 8  20399158.538    20399155.072    20399157.335
        49.000          50.000
 11  1  1  0 22  0.0000000  0  9G18G21G14G19G12G27G09G15G22
 108292235.105 7  84383566.894 7  20607316.838    20607314.767    20607316.199
        45.000          45.000
 125237476.269 3  97587634.969 3  23831907.723    23831907.120    23831906.921
        22.100          19.300
 113157167.191 7  88174431.068 6  21533076.284    21533075.182    21533075.948
        42.000          38.000
 132924578.594 3 103577605.806 1  25294697.482    25294695.621    25294697.322
        21.100           9.000
 125374513.931 4  97694428.550 4  23857975.929    23857974.372    23857974.960
        25.900          24.900
 121756408.715 5  94875126.713 5  23169474.829    23169474.770    23169474.531
        33.000          31.000
 110042072.164 7  85747060.143 6  20940313.680    20940313.183    20940313.244
        45.000          40.000
 126015875.481 5  98194186.451 4  23980026.541    23980025.180    23980026.564
        31.000          25.900
 107172583.000 8  83511124.770 8  20394247.228    20394243.950    20394246.247
        49.000          50.000
 11  1  1  0 22 30.0000000  0  9G18G21G14G19G12G27G09G15G22
 108327613.935 7  84411134.799 7  20614048.922    20614047.121    20614048.393
        45.000          45.000
 125348793.168 3  97674375.355 2  23853089.719    23853089.398    23853089.787
        23.800          17.800
 113100445.544 7  88130232.394 6  21522282.891    21522281.397    21522282.241
        42.000          38.000
 132979156.895 2 103620134.349 1  25305084.423    25305081.233    25305083.412
        17.000          11.000
 125297208.381 4  97634190.483 3  23843264.956    23843263.482    23843264.573
        28.100          23.800
 121839509.777 5  94939880.782 5  23185288.297    23185288.636    23185287.897
        33.000          32.000
 110096123.772 7  85789178.284 6  20950599.338    20950599.338    20950598.957
        45.000          40.000
 126107574.741 4  98265640.419 4  23997475.684    23997475.246    23997475.881
        29.000          28.100
 107147173.193 8  83491324.920 8  20389411.979    20389408.608    20389410.915
        49.000          50.000
 11  1  1  0 23  0.0000000  0  9G18G21G14G19G12G27G09G15G22
 108363412.513 7  84439029.781 7  20620861.296    20620859.458    20620860.796
        45.000          45.000
 125460210.109 3  97761193.730 2  23874292.761    23874291.480    23874291.599
        23.800          16.100
 113043989.515 7  88086240.699 6  21511539.471    21511538.169    21511538.839
        42.000          38.000
 133034084.176 3 103662934.803 1  25315535.522    25315534.409    25315535.455
        19.300           9.000
 125220197.705 4  97574182.213 4  23828609.737    23828608.984    23828609.669
        28.100          24.900
 121922858.946 5  95004828.187 5  23201148.887    23201149.252    23201148.647
        33.000          31.000
 110150757.240 7  85831749.820 6  20960995.954    20960995.218    20960995.515
        45.000          40.000
 126199323.200 4  98337132.699 4  24014934.240    24014934.566    24014934.922
        29.000          27.100
 107122163.102 8  83471836.540 8  20384652.785    20384649.296    20384651.730
        49.000          50.000
 11  1  1  0 23 30.0000000  0  9G18G21G14G19G12G27G09G15G22
 108399630.685 7  84467251.711 7  20627753.261    20627751.606    20627752.781
        45.000          45.000
 125571724.153 3  97848087.749 3  23895512.350    23895512.193    23895511.604
        22.100          19.300
 112987799.265 7  88042456.105 6  21500846.544    21500845.382    21500846.240
        42.000          38.000
 133089357.853 3 103706005.133 2  25326054.809    25326052.381    25326053.657
        23.000          12.600
 125143485.214 4  97514406.277 4  23814010.541    23814010.699    23814011.439
        28.100          24.900
 122006453.793 5  95069967.030 5  23217056.224    23217056.791    23217056.196
        33.000          31.000
 110205970.787 7  85874773.362 6  20971502.434    20971502.061    20971502.205
        45.000          40.000
 126291119.625 4  98408662.367 4  24032403.699    24032402.524    24032403.734
        29.000          27.100
 107097554.025 8  83452660.636 8  20379969.853    20379966.315    20379968.699
        49.000          50.000
 11  1  1  0 24  0.0000000  0  9G18G21G14G19G12G27G09G15G22
 108436268.799 7  84495800.886 7  20634725.393    20634723.632    20634724.981
        45.000          44.000
 125683332.622 3  97935055.377 2  23916750.260    23916750.805    23916749.973
        23.000          13.900
 112931875.085 7  87998878.835 6  21490204.472    21490203.433    21490204.231
        42.000          38.000
 133144975.314 3 103749343.413 2  25336638.096    25336636.065    25336637.141
        21.100          12.600
 125067074.150 4  97454865.216 4  23799470.015    23799470.336    23799470.415
        27.100          25.900
 122090292.047 5  95135295.538 5  23233010.628    23233010.665    23233010.204
        33.000          31.000
 110261761.721 7  85918246.819 6  20982119.465    20982118.739    20982118.933
        45.000          40.000
 126382963.192 4  98480228.766 4  24049880.814    24049879.764    24049880.904
        28.100          25.900
 107073347.110 8  83433798.109 8  20375363.458    20375359.861    20375362.366
        49.000          50.000
 11  1  1  0 24 30.0000000  0  9G18G21G14G19G12G27G09G15G22
 108473326.618 7  84524677.105 7  20641777.497    20641775.582    20641776.781
        45.000          44.000
 125795032.823 3  98022094.442 1  23938005.630    23938006.553    23938005.337
        23.000           9.000
 112876217.051 7  87955508.951 6  21479613.003    21479612.007    21479612.818
        42.000          38.000
 133200934.243 3 103792947.784 2  25347286.700    25347284.580    25347285.658
        19.300          13.900
 124990967.588 4  97395561.410 4  23784989.187    23784987.614    23784988.289
        28.100          25.900
 122174371.594 5  95200812.069 5  23249010.164    23249010.549    23249009.856
        33.000          31.000
 110318127.877 7  85962168.499 6  20992845.413    20992844.825    20992845.030
        45.000          40.000
 126474852.973 4  98551831.186 4  24067366.932    24067366.038    24067366.730
        28.100          27.100
 107049543.606 8  83415249.926 8  20370833.781    20370830.297    20370832.671
        49.000          50.000
 11  1  1  0 25  0.0000000  0  9G18G21G14G19G12G27G09G15G22
 108510804.269 7  84553880.477 7  20648908.924    20648907.300    20648908.470
        45.000          44.000
 125906821.484 3  98109202.456 2  23959277.454    23959278.541    23959277.878
        22.100          13.900
 112820825.774 7  87912346.934 6  21469072.513    21469071.265    21469072.054
        42.000          38.000
 133257232.122 3 103836816.253 1  25358000.535    25357996.783    25357998.944
        23.000          11.000
 124915168.482 4  97336497.181 4  23770565.129    23770563.920    23770564.317
        29.000          25.900
 122258690.086 5  95266514.793 5  23265055.942    23265055.920    23265055.376
        33.000          31.000
 110375066.630 7  86006536.363 6  21003680.306    21003679.961    21003680.021
        45.000          40.000
 126566788.503 4  98623469.199 4  24084861.094    24084860.919    24084861.433
        27.100          27.100
 107026144.936 8  83397017.198 8  20366381.189    20366377.728    20366380.046
        49.000          50.000
 11  1  1  0 25 30.0000000  0  9G18G21G14G19G12G27G09G15G22
 108548701.745 7  84583411.007 7  20656120.768    20656118.840    20656120.082
        45.000          44.000
 126018695.879 3  98196377.283 2  23980567.389    23980568.533    23980567.255
        19.300          17.800
 112765701.391 7  87869392.883 6  21458582.747    21458581.519    21458582.276
        42.000          38.000
 133313866.216 2 103880946.683 2  25368777.083    25368775.004    25368776.174
        17.800          15.100
 124839679.929 4  97277674.994 4  23756199.023    23756199.183    23756198.804
        27.100          28.100
 122343245.143 5  95332401.853 5  23281145.984    23281145.984    23281145.768
        33.000          30.100
 110432575.729 7  86051348.649 6  21014624.202    21014623.460    21014623.808
        45.000          40.000
 126658768.630 4  98695141.988 4  24102365.126    24102364.382    24102365.118
        28.100          28.100
 107003152.617 8  83379101.111 8  20362005.824    20362002.413    20362004.797
        50.000          50.000
 11  1  1  0 26  0.0000000  0 10G18G21G14G19G12G27G25G09G15G22
 108587018.671 7  84613268.355 7  20663412.048    20663410.255    20663411.560
        45.000          44.000
 126130653.220 3  98283616.713 2  24001872.685    24001872.822    24001872.965
        21.100          13.900
 112710843.972 7  87826646.850 6  21448143.834    21448142.565    21448143.449
        42.000          38.000
 133370833.887 3 103925337.089    25379617.245    25379615.834    25379616.565
        19.300           3.000
 124764505.162 4  97219097.281 4  23741892.576    23741893.928    23741893.558
        28.100          27.100
 122428034.368 5  95398471.395 5  23297280.527    23297281.263    23297280.515
        33.000          31.000
 132167907.814 3 102987956.681 1  25150734.397    25150737.758    25150734.274
        21.100          11.000
 110490652.756 7  86096603.479 6  21025675.648    21025675.095    21025675.398
        45.000          40.000
 126750792.098 4  98766848.568 4  24119875.991    24119875.527    24119876.390
        28.100          24.900
 106980567.377 8  83361502.226 8  20357708.090    20357704.551    20357706.957
        50.000          50.000
 11  1  1  0 26 30.0000000  0 10G18G21G14G19G12G27G25G09G15G22
 108625755.344 7  84643452.778 7  20670783.340    20670781.638    20670782.808
        45.000          44.000
 126242690.874 3  98370918.703 2  24023193.269    24023193.431    24023192.790
        21.100          17.000
 112656253.562 7  87784108.875 6  21437755.367    21437754.224    21437755.112
        42.000          38.000
 133428132.850 3 103969985.586    25390521.567    25390519.562    25390520.776
        19.900
 124689647.095 4  97160766.359 4  23727647.576    23727648.630    23727648.396
        27.100          25.900
 122513055.442 5  95464721.568 5  23313459.556    23313459.763    23313459.453
        33.000          31.000
 132068376.027 2 102910399.525 1  25131794.570    25131797.635    25131793.392
        17.000           6.500
 110549295.277 7  86142298.951 6  21036835.005    21036834.514    21036834.719
        45.000          40.000
 126842858.850 4  98838588.879 3  24137395.503    24137394.912    24137395.899
        24.900          23.000
 106958390.757 8  83344221.753 8  20353487.890    20353484.488    20353486.823
        50.000          50.000
 11  1  1  0 27  0.0000000  0 10G18G21G14G19G12G27G25G09G15G22
 108664911.532 7  84673964.091 7  20678234.523    20678232.801    20678233.902
        44.000          44.000
 126354805.794 3  98458280.847 3  24044528.486    24044528.605    24044527.788
        23.000          19.300
 112601930.779 7  87741779.438 6  21427418.303    21427417.031    21427417.861
        42.000          39.000
 133485760.427 3 104014890.204 2  25401487.613    25401485.133    25401486.579
